stop_id,stop_code,stop_name,stop_desc,stop_lat,stop_lon,stop_url,location_type,parent_station,stop_timezone,wheelchair_boarding
701779,19056,Riverside Ave,,38.0247001648,-78.4551239014,http://www.CatchTheCAT.org,0,,,
701582,12412,Chesapeake St at Riverview St,,38.0242271423,-78.4587173462,http://www.CatchTheCAT.org,0,,,
701760,17712,Chesapeake St at 18th St NE,,38.0252418518,-78.4612197876,http://www.CatchTheCAT.org,0,,,
701588,12624,Fairway Ave at Short 18th St,,38.0267295837,-78.4624176025,http://www.CatchTheCAT.org,0,,,
701589,12648,Fairway Ave at Arbor Cir,,38.0290756226,-78.4635009766,http://www.CatchTheCAT.org,0,,,
701584,12465,Fairway Ave at Meade Ave,,38.0301780701,-78.4647979736,http://www.CatchTheCAT.org,0,,,
701585,12483,Meade Ave at Caroline Ave,,38.0291404724,-78.4656982422,http://www.CatchTheCAT.org,0,,,
701782,19094,Little High St at 12th St NE,,38.029712677,-78.4679260254,http://www.CatchTheCAT.org,0,,,
701785,19127,Little High St at 11th St NE,,38.030797106347,-78.4709655642563,http://www.CatchTheCAT.org,0,,,
701722,16475,E High St at Locust Ave,,38.0316505432,-78.4723510742,http://www.CatchTheCAT.org,0,,,
701555,11321,E Market St at 10th St NE,,38.0290177343651,-78.4740365390239,http://www.CatchTheCAT.org,0,,,
701753,17333,Downtown Transit Station,,38.0289878845,-78.4773330688,http://www.CatchTheCAT.org,0,,,
701534,11015,E Water St at 3rd St SE,,38.0295562744,-78.480140686,http://www.CatchTheCAT.org,0,,,
701535,11036,W Water St at the Omni,,38.0309753418,-78.4842681885,http://www.CatchTheCAT.org,0,,,
701794,19232,Monticello Ave at Ridge St,,38.0283622742,-78.4853286743,http://www.CatchTheCAT.org,0,,,
701657,14237,Monticello Ave at 2nd St SE,,38.0266036987,-78.4821090698,http://www.CatchTheCAT.org,0,,,
701656,14228,Monticello Ave at 6th St SE,,38.0252380371,-78.4809188843,http://www.CatchTheCAT.org,0,,,
701850,19820,Monticello Ave at Rialto St,,38.023519067088,-78.4774614522346,http://www.CatchTheCAT.org,0,,,
701586,12505,Monticello Ave at Castalia St,,38.0216674805,-78.4744262695,http://www.CatchTheCAT.org,0,,,
701790,19189,Monticello Ave at Blenheim Ave,,38.0200271606,-78.4740600586,http://www.CatchTheCAT.org,0,,,
701590,12676,Monticello Ave at Elliott Ave,,38.0185852051,-78.4750442505,http://www.CatchTheCAT.org,0,,,
701852,19849,PVCC at the Stultz Ctr,,38.0061435591772,-78.4807374477621,http://www.CatchTheCAT.org,0,,,
701595,12800,PVCC at the Dickinson Bldg,,38.0051765442,-78.4881439209,http://www.CatchTheCAT.org,0,,,
701684,14926,PVCC at the Main Bldg,,38.0074626367789,-78.4837692379974,http://www.CatchTheCAT.org,0,,,
701855,19883,Monticello Rd at Linden Ave,,38.0153694153,-78.4731826782,http://www.CatchTheCAT.org,0,,,
701854,19877,Monticello Rd at Elliott Ave,,38.0179710388,-78.4730606079,http://www.CatchTheCAT.org,0,,,
701853,19854,Monticello Rd at Carlton Rd,,38.0197715759,-78.4728927612,http://www.CatchTheCAT.org,0,,,
701583,12431,Monticello Ave at Tufton Ave,,38.0218276978,-78.4743347168,http://www.CatchTheCAT.org,0,,,
701851,19831,Monticello Ave at Rialto St,,38.02368927,-78.4775848389,http://www.CatchTheCAT.org,0,,,
701791,19191,Monticello Ave at 6th St SE,,38.025390625,-78.4807434082,http://www.CatchTheCAT.org,0,,,
701792,19209,Monticello Ave at 2nd St SE,,38.0272827148,-78.4824752808,http://www.CatchTheCAT.org,0,,,
701793,19213,Monticello Ave at Ridge St,,38.0286105691753,-78.485338965828,http://www.CatchTheCAT.org,0,,,
701536,11043,Ridge McIntire Rd at the Omni,,38.0316352844,-78.4848709106,http://www.CatchTheCAT.org,0,,,
701561,11494,W Market St at Old Preston Ave,,38.0327072144,-78.4833679199,http://www.CatchTheCAT.org,0,,,
701553,11299,E Market St at 2nd St NE,,38.0312919617,-78.4805450439,http://www.CatchTheCAT.org,0,,,
701554,11309,E Market St at 5th St NE,,38.0304832458,-78.4779586792,http://www.CatchTheCAT.org,0,,,
701723,16512,E High St at 9 1/2 St NE,,38.0314845046621,-78.4727264652516,http://www.CatchTheCAT.org,0,,,
701784,19115,Little High St at 11th St NE,,38.0306921147512,-78.4710442423516,http://www.CatchTheCAT.org,0,,,
701783,19104,Little High St at 12th St NE,,38.0296083303165,-78.4679469167882,http://www.CatchTheCAT.org,0,,,
701781,19087,Chesapeake St at Meade Park,,38.0271390645647,-78.4659988942373,http://www.CatchTheCAT.org,0,,,
701587,12580,E Market St at 18th St NE,,38.0243301392,-78.4624481201,http://www.CatchTheCAT.org,0,,,
701780,19060,Chesapeake St at Riverview St,,38.0239485212412,-78.4582504302446,http://www.CatchTheCAT.org,0,,,
701777,19039,Riverside Ave,,38.0246772766,-78.4549636841,http://www.CatchTheCAT.org,0,,,
701778,19041,Riverside Ave at Riverbluff Cir,,38.0269681385363,-78.4562545049893,http://www.CatchTheCAT.org,0,,,
701863,20077,Avon St Ext at the Avon St Ext Park & Ride,,38.0138397217,-78.4867935181,http://www.CatchTheCAT.org,0,,,
701864,20083,Avon St at Belmont Cottages,,38.0164015091153,-78.4849258958848,http://www.CatchTheCAT.org,0,,,
701709,15927,Avon St at Druid Ave,,38.019800223409,-78.482395887364,http://www.CatchTheCAT.org,0,,,
701575,12052,Avon St at Montrose Ave,,38.0218849182,-78.4808731079,http://www.CatchTheCAT.org,0,,,
701574,12047,Avon St at Blenheim Ave,,38.0229377747,-78.4801177979,http://www.CatchTheCAT.org,0,,,
701577,12075,Avon St at Hinton Ave,,38.0261573792,-78.4778442383,http://www.CatchTheCAT.org,0,,,
701605,12994,Ridge St at Dice St,,38.0280723572,-78.4864501953,http://www.CatchTheCAT.org,0,,,
701604,12987,Ridge St at Cherry Ave,,38.0262023071415,-78.4885638158309,http://www.CatchTheCAT.org,0,,,
701602,12956,5th St SW at Bailey Rd,,38.0208425704278,-78.4945941865398,http://www.CatchTheCAT.org,0,,,
995549,20123,5th St SW at Cleveland Ave,,38.0172968351913,-78.4973761439323,http://www.CatchTheCAT.org,0,,,
701803,19324,Willoughby Square Shopping Ctr,,38.0135652421028,-78.5023428201738,http://www.CatchTheCAT.org,0,,,
995552,20110,Bent Creek Rd at the Exxon Station,,38.0117848112231,-78.5020011395779,http://www.CatchTheCAT.org,0,,,
701861,20054,5th Street Station,,38.0101592554824,-78.4987279177016,http://www.CatchTheCAT.org,0,,,
701862,20065,5th St Station Pkwy at Avon St Ext,,38.0087962657902,-78.4924937486344,http://www.CatchTheCAT.org,0,,,
701600,12939,Hickory St at Quest Ct,,37.9990882874,-78.5240249634,http://www.CatchTheCAT.org,0,,,
701703,15841,5th St Ext at the County Office Bldg,,38.005540224087,-78.5190143750867,http://www.CatchTheCAT.org,0,,,
701692,15246,5th Street Ext at Moores Crk,,38.0097885132,-78.5063400269,http://www.CatchTheCAT.org,0,,,
701699,15785,5th St SW at Bent Creek Rd,,38.0124549866,-78.5021057129,http://www.CatchTheCAT.org,0,,,
701700,15792,5th St SW at Bailey Rd,,38.0210425890866,-78.4940935629451,http://www.CatchTheCAT.org,0,,,
701701,15802,Ridge St at Elliott Ave,,38.0260238647,-78.4884262085,http://www.CatchTheCAT.org,0,,,
701702,15818,Ridge St at Dice St,,38.0280723572,-78.4863204956,http://www.CatchTheCAT.org,0,,,
701562,11500,Avon St at Garrett St,,38.0264053345,-78.4779205322,http://www.CatchTheCAT.org,0,,,
701698,15759,Hinton Ave at Meridian St,,38.0242681924022,-78.4748179278158,http://www.CatchTheCAT.org,0,,,
701694,15261,Bainbridge St at Monticello Rd,,38.0230293274,-78.4730834961,http://www.CatchTheCAT.org,0,,,
701697,15737,Carlton Ave at Carlton Rd,,38.0227524424205,-78.4702123999713,http://www.CatchTheCAT.org,0,,,
701786,19136,Rives St at Carlton Ave,,38.0212986731687,-78.4676671921839,http://www.CatchTheCAT.org,0,,,
701787,19143,Rives St at Hampton St,,38.0193034641398,-78.4691325190661,http://www.CatchTheCAT.org,0,,,
701788,19158,Rives St at Rives Park,,38.0174369812,-78.4714584351,http://www.CatchTheCAT.org,0,,,
701789,19162,Monticello Rd at Linden Ave,,38.0151877780296,-78.473219841689,http://www.CatchTheCAT.org,0,,,
701704,15860,Altavista Ave,,38.0183372498,-78.4771194458,http://www.CatchTheCAT.org,0,,,
701705,15873,Altavista Ave at Rialto St,,38.0197868347,-78.4802703857,http://www.CatchTheCAT.org,0,,,
701706,15887,Belmont Park,,38.0183451684959,-78.4816344678152,http://www.CatchTheCAT.org,0,,,
701693,15255,5th Street Ext at Moores Crk,,38.0108413696,-78.5048980713,http://www.CatchTheCAT.org,0,,,
701858,19934,5th St Ext at Wahoo Way,,38.0064088929872,-78.5172739028673,http://www.CatchTheCAT.org,0,,,
701767,18219,5th Street Ext at Old Lynchburg Rd,,38.00548172,-78.5198745728,http://www.CatchTheCAT.org,0,,,
701571,11908,McCormick Rd at the UVA Chapel,,38.0362259541034,-78.5046589195134,http://www.CatchTheCAT.org,0,,,
701552,11281,University Ave at the Rotunda,,38.0365104675,-78.5028457642,http://www.CatchTheCAT.org,0,,,
701551,11247,University Ave at the Women's Center,,38.0340805054,-78.4998474121,http://www.CatchTheCAT.org,0,,,
701542,11138,W Main St at 11th St SW,,38.0327370240272,-78.4956906619351,http://www.CatchTheCAT.org,0,,,
701540,11101,W Main St at the Flats,,38.0320103882433,-78.4923833948963,http://www.CatchTheCAT.org,0,,,
701538,11062,W Main St at 4th St NW,,38.0306282043,-78.4868011475,http://www.CatchTheCAT.org,0,,,
701751,17305,2nd St SW at the Downtown Mall,,38.0309097885103,-78.4822652339967,http://www.CatchTheCAT.org,0,,,
701537,11058,W Main Street at 5th St SW,,38.0308689944327,-78.4872257398908,http://www.CatchTheCAT.org,0,,,
701539,11091,W Main St at 8th St NW,,38.0317043579598,-78.4905289130337,http://www.CatchTheCAT.org,0,,,
701546,11186,W Main St at the Flats,,38.0321686751316,-78.4924979580084,http://www.CatchTheCAT.org,0,,,
701541,11129,W Main St at 11th St NW,,38.0328903198,-78.4957427979,http://www.CatchTheCAT.org,0,,,
701547,11193,JPA at the UVA Hospital,,38.0325856770986,-78.5004586349401,http://www.CatchTheCAT.org,0,,,
701543,11155,JPA at Cabell Hall,,38.032169342,-78.5040893555,http://www.CatchTheCAT.org,0,,,
701570,11846,JPA at Woodrow St,,38.0310460803325,-78.5083674677223,http://www.CatchTheCAT.org,0,,,
701544,11164,JPA at Montebello Cir,,38.0288124822709,-78.509814900898,http://www.CatchTheCAT.org,0,,,
701545,11172,JPA at Shamrock Rd,,38.0276298523,-78.5115890503,http://www.CatchTheCAT.org,0,,,
701548,11210,JPA at Maury Ave,,38.0261268616,-78.5145568848,http://www.CatchTheCAT.org,0,,,
701549,11223,Maury Ave at Clark Ct,,38.0270524605846,-78.5158882329641,http://www.CatchTheCAT.org,0,,,
701533,10687,Alderman Road at Stadium Rd,,38.0290551065492,-78.5163845964104,http://www.CatchTheCAT.org,0,,,
701550,11234,Alderman Rd at the AFC,,38.0338249207,-78.5140914917,http://www.CatchTheCAT.org,0,,,
701573,11931,McCormick Rd at Gilmer Hall (Night Stop),,38.0348091125,-78.5131835938,http://www.CatchTheCAT.org,0,,,
701567,11782,McCormick Rd at the Chemistry Building,,38.0341758728,-78.511680603,http://www.CatchTheCAT.org,0,,,
701857,19923,McCormick Rd at Thornton Hall (Night Stop),,38.0336900390166,-78.5095586079218,http://www.CatchTheCAT.org,0,,,
701572,11920,McCormick Rd at Clark Hall (Night Stop),,38.0338284365008,-78.5071120858075,http://www.CatchTheCAT.org,0,,,
701568,11802,McCormick Rd at Garrett Hall,,38.034324646,-78.5060195923,http://www.CatchTheCAT.org,0,,,
701729,16596,Fashion Square Mall,,38.0772120367491,-78.4739138484189,http://www.CatchTheCAT.org,0,,,
701728,16583,Mall Dr at Hillsdale Dr,,38.0747918553548,-78.473352223598,http://www.CatchTheCAT.org,0,,,
701713,16021,Hillsdale Dr at Walden Ct,,38.0739174553028,-78.4703042517567,http://www.CatchTheCAT.org,0,,,
701839,19693,Rio Rd E at Wakefield Rd,,38.0698126457401,-78.4682979102813,http://www.CatchTheCAT.org,0,,,
701741,17139,Rio Rd E at Greenbrier Dr,,38.0672583552262,-78.4666368741685,http://www.CatchTheCAT.org,0,,,
701748,17207,Rio Rd E at CATEC,,38.0634233270813,-78.4630103831046,http://www.CatchTheCAT.org,0,,,
701835,19655,Rio Rd E at Waldorf School Rd,,38.0561027527,-78.4605255127,http://www.CatchTheCAT.org,0,,,
701744,17160,Rio Rd E at the Treesdale Apartments,,38.0530103433041,-78.4616731272446,http://www.CatchTheCAT.org,0,,,
701771,18257,Park St at Beechwood Garden,,38.0454590599504,-78.4709598855221,http://www.CatchTheCAT.org,0,,,
701596,12871,North Ave at Wilder Dr,,38.0437507629,-78.4697265625,http://www.CatchTheCAT.org,0,,,
701592,12726,North Ave at Cottonwood Rd,,38.0429153442,-78.467124939,http://www.CatchTheCAT.org,0,,,
701597,12885,North Ave at Holmes Ave,,38.0427627563,-78.4649810791,http://www.CatchTheCAT.org,0,,,
701598,12902,Sheridan Ave at Calhoun St,,38.0420684814,-78.4652023315,http://www.CatchTheCAT.org,0,,,
701599,12918,Calhoun St at Locust Ave,,38.0404891968,-78.4635238647,http://www.CatchTheCAT.org,0,,,
701769,18235,St Clair Ave at St George Ave,,38.0396852026214,-78.4612311952433,http://www.CatchTheCAT.org,0,,,
701772,18261,St Clair Ave at Smith St,,38.041649691845,-78.4588586687776,http://www.CatchTheCAT.org,0,,,
701743,17156,Locust Ave at Smith St,,38.0427945407709,-78.4605425843206,http://www.CatchTheCAT.org,0,,,
701737,17092,Locust Ave at Watson Ave,,38.0385159312372,-78.465742130853,http://www.CatchTheCAT.org,0,,,
701594,12774,Locust Ave at Hazel St,,38.0355170590825,-78.468798458609,http://www.CatchTheCAT.org,0,,,
701593,12761,Locust Ave at Sycamore St,,38.0329589844,-78.4705352783,http://www.CatchTheCAT.org,0,,,
701757,17442,Locust Ave at Sycamore St,,38.0332603455,-78.4701665640378,http://www.CatchTheCAT.org,0,,,
701746,17187,Locust Ave at Hazel St,,38.0354327199092,-78.4686489105115,http://www.CatchTheCAT.org,0,,,
701755,17379,Locust Ave at Long St,,38.0380016791119,-78.4661772146092,http://www.CatchTheCAT.org,0,,,
701591,12703,Locust Ave at Smith St,,38.0426263309717,-78.4606601875007,http://www.CatchTheCAT.org,0,,,
701603,12960,Peartree Ln at Saint Clair Ave,,38.0422515869,-78.458404541,http://www.CatchTheCAT.org,0,,,
701601,12941,St Clair Ave at Calhoun St,,38.0393461672684,-78.461801952675,http://www.CatchTheCAT.org,0,,,
701766,18203,Sheridan Ave at Calhoun St,,38.0421527794555,-78.4649132456583,http://www.CatchTheCAT.org,0,,,
701745,17173,North Ave at Glendale Rd,,38.04295119699,-78.4657931976601,http://www.CatchTheCAT.org,0,,,
701770,18242,North Ave at Wilder Dr,,38.0437209216107,-78.469223020754,http://www.CatchTheCAT.org,0,,,
701773,18300,Rio Rd E at Pen Park Ln,,38.0523643494,-78.4618911743,http://www.CatchTheCAT.org,0,,,
701834,19640,Rio Rd E at Dunlora Forest Dr,,38.0573067309528,-78.4608898557736,http://www.CatchTheCAT.org,0,,,
701747,17194,Rio Rd E at John W Warner Pkwy,,38.0612831116,-78.4625473022,http://www.CatchTheCAT.org,0,,,
701742,17141,Rio Rd E at Greenbrier Dr,,38.0672347939098,-78.4663302783919,http://www.CatchTheCAT.org,0,,,
701838,19686,Rio Rd E at Wakefield Rd,,38.0702492148248,-78.4681417346352,http://www.CatchTheCAT.org,0,,,
701740,17125,Hillsdale Dr at Exeter Ct,,38.0739752425109,-78.4705962500846,http://www.CatchTheCAT.org,0,,,
701739,17118,Mall Dr at Royal Ct,,38.0749002433789,-78.4731802344712,http://www.CatchTheCAT.org,0,,,
701805,19348,Harris Rd at Lodge Creek Cir,,38.015334452889,-78.5041792813022,http://www.CatchTheCAT.org,0,,,
701806,19353,Harris Rd at Willard Dr,,38.0158280786697,-78.5081234553477,http://www.CatchTheCAT.org,0,,,
701807,19369,JPA at Azalea Dr,,38.0159712417919,-78.5113272049473,http://www.CatchTheCAT.org,0,,,
701808,19376,JPA at Old Lynchburg Rd,,38.0189240928929,-78.51364104933,http://www.CatchTheCAT.org,0,,,
701809,19382,Cleveland Ave at Hammond St,,38.0204588712438,-78.5137481539275,http://www.CatchTheCAT.org,0,,,
701811,19400,Cleveland Ave at Woodland Dr,,38.020016722475,-78.5118726582753,http://www.CatchTheCAT.org,0,,,
701759,17689,Cherry Ave at Rainier Rd,,38.0219099222311,-78.5090736911085,http://www.CatchTheCAT.org,0,,,
701765,18051,Cherry Ave at Shamrock Rd,,38.0235482574441,-78.5067947777546,http://www.CatchTheCAT.org,0,,,
701676,14523,Cherry Ave at Rockcreek Rd,,38.0243415833,-78.502746582,http://www.CatchTheCAT.org,0,,,
701677,14534,Cherry Ave at Hanover St,,38.0258374064019,-78.5010168552688,http://www.CatchTheCAT.org,0,,,
701678,14547,Cherry Ave at 10th St SW,,38.0284538269,-78.4968414307,http://www.CatchTheCAT.org,0,,,
701815,19444,Roosevelt Brown Blvd at Grove St,,38.0300429115769,-78.4955933689696,http://www.CatchTheCAT.org,0,,,
701736,17028,JPA at Pinn Hall,,38.0323227456007,-78.500754780708,http://www.CatchTheCAT.org,0,,,
701814,19437,Roosevelt Brown Blvd at King St,,38.0297239311134,-78.4956145692892,http://www.CatchTheCAT.org,0,,,
701565,11585,Cherry Ave at Cherry Avenue Shopping Ctr,,38.0286827087,-78.4941635132,http://www.CatchTheCAT.org,0,,,
701579,12113,Cherry Ave at 6th St SW,,38.0274445893742,-78.4912915229914,http://www.CatchTheCAT.org,0,,,
701707,15894,Cherry Ave at 6th St SW,,38.0273780823,-78.4910049438,http://www.CatchTheCAT.org,0,,,
701708,15904,Cherry Ave at the Independence Resource Ctr,,38.0287017822,-78.4938583374,http://www.CatchTheCAT.org,0,,,
701813,19428,Cherry Ave at 10th St SW,,38.0285415649,-78.4971466064,http://www.CatchTheCAT.org,0,,,
701758,17636,Cherry Ave at Hanover St,,38.0262031555,-78.5009002686,http://www.CatchTheCAT.org,0,,,
701812,19416,Cherry Ave at Rockcreek Rd,,38.0242973940631,-78.5033951700234,http://www.CatchTheCAT.org,0,,,
701696,15272,Cherry Ave at Shamrock Rd,,38.0237074435502,-78.50682147802,http://www.CatchTheCAT.org,0,,,
701695,15264,Cherry Ave at Highland Ave,,38.0215472973904,-78.5097868681889,http://www.CatchTheCAT.org,0,,,
701810,19395,Cleveland Ave at Woodland Dr,,38.0201085387961,-78.5118868760495,http://www.CatchTheCAT.org,0,,,
701560,11439,Cleveland Ave at JPA,,38.0207135140532,-78.5145279717306,http://www.CatchTheCAT.org,0,,,
701556,11350,JPA at Old Lynchburg Rd,,38.0187220964278,-78.5135310055138,http://www.CatchTheCAT.org,0,,,
701557,11366,JPA at Monte Vista Ave,,38.0175808746266,-78.5127138595913,http://www.CatchTheCAT.org,0,,,
701558,11378,JPA at Azalea Dr,,38.0159226384183,-78.5114095669359,http://www.CatchTheCAT.org,0,,,
701559,11397,Harris Rd at Willard Dr,,38.0158004761,-78.5078582764,http://www.CatchTheCAT.org,0,,,
701804,19330,Harris Rd at Longwood Dr,,38.0154774744226,-78.5046718729127,http://www.CatchTheCAT.org,0,,,
701628,13296,Walmart,,38.0965060807137,-78.4670601487566,http://www.CatchTheCAT.org,0,,,
701622,13208,Berkmar Dr at the SPCA,,38.0929390957916,-78.4725178535182,http://www.CatchTheCAT.org,0,,,
701681,14612,Berkmar Dr at Barry Ter,,38.0917434692,-78.4733276367,http://www.CatchTheCAT.org,0,,,
701754,17367,Rio Hill Shopping Ctr,,38.0882323156825,-78.474366486035,http://www.CatchTheCAT.org,0,,,
701688,15110,Rio Hill Shopping Ctr at the Subway,,38.0867871618863,-78.4723601341279,http://www.CatchTheCAT.org,0,,,
701711,16009,Rio Rd E at Putt Putt Ln,,38.0777168274,-78.470413208,http://www.CatchTheCAT.org,0,,,
701849,19812,Rio Rd W at the Northside Library,,38.0833282471,-78.4750061035,http://www.CatchTheCAT.org,0,,,
701762,17909,Rio Rd W at Berkmar Dr,,38.0848965682787,-78.4770350158496,http://www.CatchTheCAT.org,0,,,
701848,19808,Rio Rd W at the Charlottesville Rehab Ctr,,38.0869338774257,-78.4825721680742,http://www.CatchTheCAT.org,0,,,
701683,14677,Four Seasons Dr at Tennis Dr,,38.0825500488,-78.4875640869,http://www.CatchTheCAT.org,0,,,
701679,14568,Four Seasons Dr at the ACAC,,38.0795620135749,-78.4866314530451,http://www.CatchTheCAT.org,0,,,
701680,14575,Four Seasons Dr at Woodlake Dr,,38.0780267763833,-78.4843178987902,http://www.CatchTheCAT.org,0,,,
701675,14510,Commonwealth Dr at Commonwealth Cir,,38.0765259942032,-78.4827732444271,http://www.CatchTheCAT.org,0,,,
701674,14506,Commonwealth Dr at Westfield Rd,,38.0738609148326,-78.4859695435,http://www.CatchTheCAT.org,0,,,
701673,14497,Commonwealth Dr at Commonwealth Ct,,38.0725364685,-78.4897537231,http://www.CatchTheCAT.org,0,,,
701672,14484,Commonwealth Dr at the Trophy Chase Apartments,,38.0706967716911,-78.4917845287256,http://www.CatchTheCAT.org,0,,,
701671,14478,Commonwealth Dr at Northwest Dr,,38.0692520142,-78.4936752319,http://www.CatchTheCAT.org,0,,,
701670,14466,Commonwealth Dr at Hydraulic Rd,,38.0677032471,-78.4953918457,http://www.CatchTheCAT.org,0,,,
701668,14445,Hydraulic Rd at Turtle Creek Rd,,38.0679588318,-78.4968719482,http://www.CatchTheCAT.org,0,,,
701669,14450,Georgetown Rd at Hydraulic Rd,,38.0706748962,-78.4998245239,http://www.CatchTheCAT.org,0,,,
701682,14654,Georgetown Rd at Terrell Rd E,,38.0678544064026,-78.5031297803417,http://www.CatchTheCAT.org,0,,,
701844,19746,Georgetown Rd at Inglewood Dr,,38.0652427673,-78.50440979,http://www.CatchTheCAT.org,0,,,
701689,15152,Georgetown Rd at Hessian Hills Rdg,,38.0618513816589,-78.5079473082142,http://www.CatchTheCAT.org,0,,,
701667,14413,Barracks Rd at Surrey Rd,,38.0590209961,-78.5065917969,http://www.CatchTheCAT.org,0,,,
701665,14387,Barracks Rd at Cedars Ct,,38.0551419236663,-78.5015351772082,http://www.CatchTheCAT.org,0,,,
701625,13265,Barracks Rd Shopping Ctr at Arlington Blvd,,38.0487717693683,-78.5046219783628,http://www.CatchTheCAT.org,0,,,
701580,12178,Millmont St at the US Post Office,,38.050994873,-78.5042114258,http://www.CatchTheCAT.org,0,,,
701581,12184,Millmont St at the CVS,,38.0533638,-78.5016784668,http://www.CatchTheCAT.org,0,,,
701618,13161,Barracks Rd at Cedars Ct,,38.0552684888467,-78.5013335543023,http://www.CatchTheCAT.org,0,,,
701623,13220,Barracks Rd at Bennington Rd,,38.0585594177,-78.5056762695,http://www.CatchTheCAT.org,0,,,
701616,13142,Georgetown Rd at Hessian Hills Way,,38.0629881330248,-78.5064310621503,http://www.CatchTheCAT.org,0,,,
701621,13190,Georgetown Rd at Inglewood Dr,,38.0650626590685,-78.5042596459287,http://www.CatchTheCAT.org,0,,,
701620,13188,Georgetown Rd at Court Pl,,38.0682003147434,-78.5023572445198,http://www.CatchTheCAT.org,0,,,
701614,13119,Georgetown Rd at Hydraulic Rd,,38.0709571838,-78.4993438721,http://www.CatchTheCAT.org,0,,,
701843,19733,Hydraulic Rd at Turtle Creek Rd,,38.0685256408462,-78.4974905252277,http://www.CatchTheCAT.org,0,,,
701619,13174,Commonwealth Dr at Hydraulic Rd,,38.0676460266,-78.4952774048,http://www.CatchTheCAT.org,0,,,
701615,13126,Commonwealth Dr at Northwest Dr,,38.0691375732,-78.4936065674,http://www.CatchTheCAT.org,0,,,
701611,13072,Commonwealth Dr at Peyton Dr,,38.0714263916,-78.4907073975,http://www.CatchTheCAT.org,0,,,
701610,13064,Commonwealth Dr at Commonwealth Ct,,38.0724830627,-78.489616394,http://www.CatchTheCAT.org,0,,,
701609,13055,Commonwealth Dr at Westfield Rd,,38.0737495422,-78.4858856201,http://www.CatchTheCAT.org,0,,,
701612,13086,Four Seasons Dr at Woodlake Dr,,38.0776879419503,-78.4834910035008,http://www.CatchTheCAT.org,0,,,
701607,13017,Four Seasons Dr at the ACAC,,38.0796661377,-78.486579895,http://www.CatchTheCAT.org,0,,,
701613,13093,Four Seasons Dr at Tennis Dr,,38.0825386047,-78.4874267578,http://www.CatchTheCAT.org,0,,,
701608,13040,Rio Rd W at the Charlottesville Rehab Ctr,,38.0866966248,-78.4826660156,http://www.CatchTheCAT.org,0,,,
701630,13310,Rio Rd W at Berkmar Dr,,38.0853732154698,-78.4779996611644,http://www.CatchTheCAT.org,0,,,
701629,13306,Rio Rd W at the Northside Library,,38.0832519531,-78.4752578735,http://www.CatchTheCAT.org,0,,,
701860,20049,Berkmar Dr at Woodbrook Dr,,38.0891792791648,-78.4752693474284,http://www.CatchTheCAT.org,0,,,
701624,13231,Berkmar Dr at the UVA Credit Union,,38.0910491943,-78.4735031128,http://www.CatchTheCAT.org,0,,,
701626,13277,Berkmar Dr at the SPCA,,38.0928429164242,-78.4723214804775,http://www.CatchTheCAT.org,0,,,
701627,13283,Sam's Club,,38.1007517679531,-78.4654488563335,http://www.CatchTheCAT.org,0,,,
701712,16013,Crescent Hall,,38.0269317627,-78.4831161499,http://www.CatchTheCAT.org,0,,,
701661,14292,1st St S at Elliott Ave,,38.0235176086,-78.4856567383,http://www.CatchTheCAT.org,0,,,
701796,19250,Ridge St at Barksdale St,,38.0242354170338,-78.4900760948783,http://www.CatchTheCAT.org,0,,,
701647,14007,Ridge St at Hartman's Mill Rd,,38.0223464966,-78.4915466309,http://www.CatchTheCAT.org,0,,,
701800,19297,Ridge St at Brookwood Dr,,38.0197869470054,-78.4937846362856,http://www.CatchTheCAT.org,0,,,
701802,19311,Brookwood Dr at 5th St SW,,38.0186031376098,-78.4957976289407,http://www.CatchTheCAT.org,0,,,
701563,11563,Bailey Rd at Prospect Ave,,38.0213470459,-78.4966278076,http://www.CatchTheCAT.org,0,,,
701564,11571,Prospect Ave at the Blue Ridge Commons,,38.0239372253,-78.4948120117,http://www.CatchTheCAT.org,0,,,
701797,19266,9th St SW at Buford Middle School,,38.0259052273215,-78.4952925386488,http://www.CatchTheCAT.org,0,,,
701756,17426,9th St SW at Buford Middle School,,38.0259042677116,-78.4954623579549,http://www.CatchTheCAT.org,0,,,
701798,19278,Prospect Ave at the Blue Ridge Commons,,38.0239157347791,-78.4949914796315,http://www.CatchTheCAT.org,0,,,
701799,19284,Bailey Rd at Prospect Ave,,38.021162435197,-78.4965203396102,http://www.CatchTheCAT.org,0,,,
701801,19307,Brookwood Dr at 5th St SW,,38.0182918961537,-78.4959873340557,http://www.CatchTheCAT.org,0,,,
701650,14076,Brookwood Dr at Ridge St,,38.019443512,-78.4938812256,http://www.CatchTheCAT.org,0,,,
701795,19245,Ridge St at Hartman's Mill Rd,,38.0223643087665,-78.4914406131383,http://www.CatchTheCAT.org,0,,,
701655,14216,Ridge St at Barksdale St,,38.0243225098,-78.4898834229,http://www.CatchTheCAT.org,0,,,
701578,12081,Elliott Ave at Burnet St,,38.0246505737,-78.4875869751,http://www.CatchTheCAT.org,0,,,
701576,12068,1st St S at Elliott Ave,,38.0236740112,-78.4854049683,http://www.CatchTheCAT.org,0,,,
701716,16389,Emmet St at Massie Rd,,38.0432796587237,-78.5055678487254,http://www.CatchTheCAT.org,0,,,
701738,17102,Emmet St at Sprigg Ln,,38.038348594225,-78.507297601184,http://www.CatchTheCAT.org,0,,,
701735,16819,Emmet St at Ruffner Hall,,38.0355348818013,-78.5083099635024,http://www.CatchTheCAT.org,0,,,
701566,11690,JPA at Brandon Ave,,38.0319639072731,-78.5032635777587,http://www.CatchTheCAT.org,0,,,
701730,16614,Hillsdale Dr at the JABA,,38.0741350215953,-78.476322241915,http://www.CatchTheCAT.org,0,,,
701731,16646,Hillsdale Dr at Branchlands Blvd,,38.072074073378,-78.4796186983406,http://www.CatchTheCAT.org,0,,,
701727,16577,Greenbrier Dr at Westfield Rd,,38.069462072082,-78.4816528559027,http://www.CatchTheCAT.org,0,,,
701859,20031,Blackbird Ln at the Costco,,38.068171366479,-78.4903560280729,http://www.CatchTheCAT.org,0,,,
701841,19714,Stonefield Shopping Ctr,,38.0656776428,-78.4937086105557,http://www.CatchTheCAT.org,0,,,
701842,19722,Hydraulic Rd at Swanson Dr,,38.0639700201299,-78.4932333230739,http://www.CatchTheCAT.org,0,,,
701724,16520,Emmet St at Hydraulic Rd,,38.0614776611,-78.4923553467,http://www.CatchTheCAT.org,0,,,
701845,19751,Emmet St at Earheart St,,38.0556391441197,-78.4969028642369,http://www.CatchTheCAT.org,0,,,
701734,16680,Barracks Rd Shopping Ctr at CVS,,38.0526809692,-78.5010604858,http://www.CatchTheCAT.org,0,,,
701664,14373,Marshalls at Seminole Square Shopping Ctr,,38.0638017005185,-78.485580861527,http://www.CatchTheCAT.org,0,,,
701720,16447,Seminole Trl at the Post Office,,38.0678657851334,-78.4860758185598,http://www.CatchTheCAT.org,0,,,
701721,16452,Seminole Trl at Greenbrier Dr,,38.0697097778,-78.4844360352,http://www.CatchTheCAT.org,0,,,
701733,16667,Greenbrier Dr at Hillsdale Dr,,38.0693572306854,-78.4818786978542,http://www.CatchTheCAT.org,0,,,
701732,16651,Hillsdale Dr at Branchlands Blvd,,38.072013855,-78.4794540405,http://www.CatchTheCAT.org,0,,,
701840,19705,Hillsdale Dr at the JABA,,38.0739648267234,-78.4764577605841,http://www.CatchTheCAT.org,0,,,
701617,13157,Barracks Rd Shopping Ctr at Arlington Blvd,,38.0487465048205,-78.5044466555291,http://www.CatchTheCAT.org,0,,,
701717,16391,Emmet St at Morton Dr,,38.0557928905783,-78.4964265016375,http://www.CatchTheCAT.org,0,,,
701726,16554,Emmet St at Angus Rd,,38.0584481055889,-78.4941983819172,http://www.CatchTheCAT.org,0,,,
701725,16531,Kroger at Hydraulic Rd,,38.059967041,-78.4910736084,http://www.CatchTheCAT.org,0,,,
701718,20134,Hillsdale Dr at the Whole Foods,,38.0604558300624,-78.4891322851087,http://www.CatchTheCAT.org,0,,,
701719,16423,Hillsdale Dr,,38.0637512207,-78.4872665405,http://www.CatchTheCAT.org,0,,,
701531,10472,Emmet St at the Central Grounds Garage,,38.0362835995226,-78.507862035203,http://www.CatchTheCAT.org,0,,,
701532,10660,Emmet St at the Snyder Tennis Courts,,38.0383262634,-78.5070648193,http://www.CatchTheCAT.org,0,,,
701714,16362,Emmet St at Rothery Rd,,38.0411080350664,-78.5061246878767,http://www.CatchTheCAT.org,0,,,
701715,16370,Emmet St at Lambeth Ln,,38.0432471734978,-78.5053502023118,http://www.CatchTheCAT.org,0,,,
701654,14180,Barracks Rd at Hessian Rd,,38.0516853333,-78.4981231689,http://www.CatchTheCAT.org,0,,,
701666,14394,Preston Ave at Rugby Ave,,38.0467185974,-78.4932022095,http://www.CatchTheCAT.org,0,,,
701690,15217,Preston Ave at Cabell Ave,,38.043934438856,-78.4930700659713,http://www.CatchTheCAT.org,0,,,
701569,11833,Preston Ave at Madison Ave,,38.0413381940996,-78.492244005236,http://www.CatchTheCAT.org,0,,,
701663,14339,Preston Ave at Washington Park,,38.0395927429,-78.4916305542,http://www.CatchTheCAT.org,0,,,
701659,14271,Preston Ave at 8th St,,38.0367851257,-78.4884185791,http://www.CatchTheCAT.org,0,,,
701662,14325,Preston Ave at Harris St,,38.0351715088,-78.4860534668,http://www.CatchTheCAT.org,0,,,
701658,14244,Preston Ave at Harris St,,38.0350456238,-78.4853668213,http://www.CatchTheCAT.org,0,,,
701606,13001,Preston Ave at Booker St.,,38.0378227234,-78.4892807007,http://www.CatchTheCAT.org,0,,,
701652,14133,Preston Ave at Washington Park,,38.039691925,-78.4915542603,http://www.CatchTheCAT.org,0,,,
701648,14024,Preston Ave at Madison Ave,,38.0416717529,-78.4920883179,http://www.CatchTheCAT.org,0,,,
701691,15219,Preston Ave at Cabell Ave,,38.0435791016,-78.4928283691,http://www.CatchTheCAT.org,0,,,
701847,19779,Preston Ave at Rugby Ave,,38.046778151934,-78.4930409788992,http://www.CatchTheCAT.org,0,,,
701649,14030,Barracks Rd at Howard Dr,,38.048576355,-78.4941253662,http://www.CatchTheCAT.org,0,,,
701846,19767,Barracks Rd at Meadowbrook Rd,,38.0522835729962,-78.4984968900868,http://www.CatchTheCAT.org,0,,,
701822,19526,Grove Rd at Concord Dr,,38.054090117275,-78.4791717873029,http://www.CatchTheCAT.org,0,,,
701824,19542,Kenwood Ln at Yorktown Dr,,38.0571784973,-78.477897644,http://www.CatchTheCAT.org,0,,,
701752,17314,Grove Rd at Meadowbrook Heights Rd,,38.0560280379294,-78.4834571592883,http://www.CatchTheCAT.org,0,,,
701764,18033,Gentry Ln at Walker Upper Elementary School,,38.0548553467,-78.4843292236,http://www.CatchTheCAT.org,0,,,
701821,19519,Del Mar Dr at Oakleaf Ln,,38.0510216843103,-78.4846111833963,http://www.CatchTheCAT.org,0,,,
701820,19503,Rose Hill Dr at Greenleaf Ln,,38.0494651794,-78.4831771851,http://www.CatchTheCAT.org,0,,,
1040662,20096,YMCA,,38.0490880298119,-78.4779193997383,http://www.CatchTheCAT.org,0,,,
701856,19906,Rose Hill Dr at Rugby Ave,,38.0451680984752,-78.4838311285256,http://www.CatchTheCAT.org,0,,,
701639,13882,Rose Hill Dr at the Health Dept,,38.0427589417,-78.4841003418,http://www.CatchTheCAT.org,0,,,
701818,19471,Rose Hill Dr at Madison Ave,,38.041458024352,-78.4841408729952,http://www.CatchTheCAT.org,0,,,
701636,13811,Rose Hill Dr at Henry Ave,,38.0391616821,-78.4864730835,http://www.CatchTheCAT.org,0,,,
701637,13824,Rose Hill Dr at Dale Ave,,38.0375518799,-78.4881820679,http://www.CatchTheCAT.org,0,,,
701646,13998,10th St at Grady Ave,,38.0381126404,-78.4919204712,http://www.CatchTheCAT.org,0,,,
701710,15970,10th St NW at Page St,,38.0353044322098,-78.4934371114254,http://www.CatchTheCAT.org,0,,,
701816,19459,10th St NW at Page St,,38.035320282,-78.4931945801,http://www.CatchTheCAT.org,0,,,
701817,19463,10th St at Grady Ave,,38.0382194519,-78.4917373657,http://www.CatchTheCAT.org,0,,,
701644,13979,Rose Hill Dr at Dale Ave,,38.0374984741,-78.4879989624,http://www.CatchTheCAT.org,0,,,
701635,13807,Rose Hill Dr at Henry Ave,,38.038848877,-78.4865112305,http://www.CatchTheCAT.org,0,,,
701645,13980,Rose Hill Dr at Madison Ave,,38.0412750244,-78.4840240479,http://www.CatchTheCAT.org,0,,,
701643,13967,Rose Hill Dr at the Health Dept,,38.0427703857,-78.4839172363,http://www.CatchTheCAT.org,0,,,
701638,13853,Rose Hill Dr at Rugby Ave,,38.0455683496993,-78.4835958737722,http://www.CatchTheCAT.org,0,,,
701819,19492,Rose Hill Dr at Greenleaf Park,,38.0493354797,-78.4829711914,http://www.CatchTheCAT.org,0,,,
701642,13933,Del Mar Dr at Oakleaf Ln,,38.0510635376,-78.4844970703,http://www.CatchTheCAT.org,0,,,
701763,18022,Gentry Ln at Walker Upper Elementary School,,38.0547981262,-78.484046936,http://www.CatchTheCAT.org,0,,,
701686,15049,Grove Rd at Meadowbrook Heights Rd,,38.0558542570879,-78.4833656251282,http://www.CatchTheCAT.org,0,,,
701749,17230,Sentara Martha Jefferson Hospital,,38.0227534052293,-78.4426047644927,http://www.CatchTheCAT.org,0,,,
701641,13914,Martha Jefferson Outpatient Ctr,,38.0228424072,-78.4406204224,http://www.CatchTheCAT.org,0,,,
701687,15054,Peter Jefferson Pkwy at the Veterans Administration,,38.0216407776,-78.4399642944,http://www.CatchTheCAT.org,0,,,
701640,13895,Social Security Administration,,38.0277824402,-78.4389648438,http://www.CatchTheCAT.org,0,,,
701750,17282,Stony Point Rd,,38.0379618764265,-78.4496859014316,http://www.CatchTheCAT.org,0,,,
701768,18226,Avemore Apartments,,38.0382058343655,-78.4460535645009,http://www.CatchTheCAT.org,0,,,
701761,17720,Stony Point Rd at Winding River Ln,,38.0359400498482,-78.453797339259,http://www.CatchTheCAT.org,0,,,
701660,14285,E High St at Hazel St,,38.0328979492,-78.4626312256,http://www.CatchTheCAT.org,0,,,
701653,14167,E High St at Stewart St,,38.0319519043,-78.4653396606,http://www.CatchTheCAT.org,0,,,
701631,13685,E High St at Grove Ave,,38.0319061279,-78.4694900513,http://www.CatchTheCAT.org,0,,,
701633,13721,E High St at Grove Ave,,38.0317993164,-78.469367981,http://www.CatchTheCAT.org,0,,,
701632,13692,E High St at Meade Ave,,38.0320739746,-78.4643783569,http://www.CatchTheCAT.org,0,,,
701776,19025,E High St at Hazel St,,38.0327123233814,-78.4628238677885,http://www.CatchTheCAT.org,0,,,
1041094,20106,The Pantops Shopping Ctr at Roses,,38.0315019030667,-78.458765745163,http://www.CatchTheCAT.org,0,,,
701651,14095,Pantops Shopping Ctr at the Food Lion,,38.0313453674,-78.4572372437,http://www.CatchTheCAT.org,0,,,
701775,19018,Abbey Rd at the Rivanna Rdg Shopping Ctr,,38.0305359348946,-78.4459543452511,http://www.CatchTheCAT.org,0,,,
701634,13784,Abbey Rd at the DMV,,38.0285606384,-78.4427947998,http://www.CatchTheCAT.org,0,,,
701774,19002,Martha Jefferson Dr at State Farm Blvd,,38.0248843078597,-78.4446910863214,http://www.CatchTheCAT.org,0,,,
